City_ID,City,Country,Lat,Lng,Max Temp,Min Temp,Humidity,Cloudiness,Wind Speed,Current Description
0,Albany,US,42.6,-73.97,68.0,66.0,91,41,1.97,light rain
1,Atuona,PF,-9.8,-139.03,78.13,78.13,78,5,17.05,clear sky
2,Mataura,NZ,-46.19,168.86,60.01,60.01,72,50,0.74,light rain
3,Senador Pompeu,BR,-5.59,-39.37,71.91,71.91,82,14,3.4,few clouds
4,Cherskiy,RU,68.75,161.3,39.36,39.36,93,100,8.81,light rain
5,Pevek,RU,69.7,170.31,37.94,37.94,96,100,2.89,light rain
6,Thompson,CA,55.74,-97.86,53.6,53.6,100,90,6.93,light rain
7,Fortuna,US,40.6,-124.16,57.99,55.4,93,90,6.93,overcast clouds
8,Cape Town,ZA,-33.93,18.42,57.99,55.0,93,20,11.41,few clouds
9,Guasdualito,VE,7.24,-70.73,72.84,72.84,97,82,3.09,moderate rain
10,Tasiilaq,GL,65.61,-37.64,37.4,37.4,93,4,1.12,fog
11,Bluff,NZ,-46.6,168.33,60.01,60.01,72,54,1.81,broken clouds
12,Husavik,IS,66.04,-17.34,35.6,35.6,93,100,3.36,fog
13,Dikson,RU,73.51,80.55,46.13,46.13,81,0,12.55,clear sky
14,Ovalle,CL,-30.6,-71.2,50.88,50.88,74,97,3.29,overcast clouds
15,Qaanaaq,GL,77.48,-69.36,36.41,36.41,89,100,0.81,light rain
16,Khatanga,RU,71.97,102.5,66.34,66.34,49,98,12.82,overcast clouds
17,Margate,GB,51.38,1.39,60.01,55.0,80,89,1.01,overcast clouds
18,Saint-Philippe,RE,-21.36,55.77,69.8,55.0,59,40,8.05,scattered clouds
19,Ketchikan,US,55.34,-131.65,57.2,57.2,100,90,4.7,light rain
20,Santo Domingo Suchitepequez,GT,14.47,-91.48,73.67,73.67,91,100,1.79,light rain
21,Belaya Gora,RU,68.53,146.42,41.27,41.27,65,100,7.49,overcast clouds
22,Azangaro,PE,-14.92,-70.22,40.15,40.15,70,4,2.46,clear sky
23,Rikitea,PF,-23.12,-134.97,71.26,71.26,83,12,18.32,light rain
24,Torbay,CA,47.67,-52.73,60.01,57.99,82,5,16.11,clear sky
25,Punta Arenas,CL,-53.15,-70.92,33.8,33.01,86,13,18.34,light rain
26,Tyrma,RU,50.08,132.17,74.23,74.23,56,100,10.74,overcast clouds
27,Grindavik,IS,63.84,-22.43,46.4,46.4,93,3,4.7,clear sky
28,San Pedro,PH,14.35,121.02,90.0,89.01,75,100,10.0,overcast clouds
29,Norman Wells,CA,65.28,-126.83,69.8,69.8,43,40,16.11,scattered clouds
30,Asfi,MA,32.3,-9.24,70.45,70.45,77,39,15.79,scattered clouds
31,Labuhan,ID,-6.88,112.21,86.61,86.61,52,17,12.82,few clouds
32,Srednekolymsk,RU,67.45,153.68,40.53,40.53,70,100,10.47,overcast clouds
33,Kaitangata,NZ,-46.28,169.85,53.01,53.01,85,54,10.0,broken clouds
34,Kasongo,CD,-4.45,26.67,69.71,69.71,90,86,4.12,light rain
35,Ushuaia,AR,-54.8,-68.3,32.0,32.0,91,40,6.93,scattered clouds
36,Lagoa,PT,39.05,-27.98,72.9,72.9,88,0,16.87,clear sky
37,Lazaro Cardenas,MX,17.96,-102.2,79.95,79.95,85,40,1.77,light rain
38,Bredasdorp,ZA,-34.53,20.04,55.4,55.4,93,100,2.24,overcast clouds
39,Jamestown,US,42.1,-79.24,69.01,66.2,93,1,4.7,clear sky
40,Ribeira Grande,PT,38.52,-28.7,73.08,73.08,89,1,13.42,clear sky
41,Ajdabiya,LY,30.76,20.23,70.9,70.9,90,0,6.15,clear sky
42,Carnarvon,AU,-24.87,113.63,69.8,69.8,52,0,17.22,clear sky
43,Cayenne,GF,4.93,-52.33,73.4,73.4,100,12,11.65,few clouds
44,Nikolskoye,RU,59.7,30.79,59.0,57.0,87,84,4.47,broken clouds
45,Bandarbeyla,SO,9.49,50.81,75.85,75.85,70,60,28.45,broken clouds
46,Lorengau,PG,-2.02,147.27,76.51,76.51,87,100,3.29,light rain
47,Dhidhdhoo,MV,6.88,73.1,83.5,83.5,69,71,7.38,broken clouds
48,Kodiak,US,57.79,-152.41,57.2,57.2,87,90,3.36,overcast clouds
49,Chokurdakh,RU,70.63,147.92,38.5,38.5,75,100,10.2,overcast clouds
50,Bilibino,RU,68.05,166.44,40.35,40.35,87,100,4.76,overcast clouds
51,Busselton,AU,-33.65,115.33,60.01,52.0,72,5,1.01,clear sky
52,Vaini,TO,-21.2,-175.2,80.6,80.6,83,20,9.17,few clouds
53,Lafiagi,NG,8.87,5.42,74.21,74.21,86,100,4.47,overcast clouds
54,Arraial Do Cabo,BR,-22.97,-42.03,67.01,67.01,61,3,8.32,clear sky
55,Tukrah,LY,32.53,20.58,76.51,76.51,83,0,8.21,clear sky
56,Pudozh,RU,61.81,36.53,58.48,58.48,97,100,5.64,overcast clouds
57,Poum,NC,-20.23,164.02,72.19,72.19,78,68,19.37,broken clouds
58,Butaritari,KI,3.07,172.79,83.3,83.3,72,99,11.23,overcast clouds
59,Saskylakh,RU,71.92,114.08,54.61,54.61,52,0,12.95,clear sky
60,Saint-Joseph,RE,-21.37,55.62,66.2,55.0,59,30,8.05,scattered clouds
61,Balabac,PH,7.99,117.06,86.81,86.81,64,69,8.63,broken clouds
62,Nosy Varika,MG,-20.58,48.53,62.87,62.87,88,1,4.25,clear sky
63,Mezhdurechensk,RU,53.69,88.06,60.62,60.62,84,84,2.13,light rain
64,Kaseda,JP,31.42,130.32,89.6,87.8,62,75,8.05,broken clouds
65,Port Elizabeth,ZA,-33.92,25.57,57.2,57.2,87,75,10.29,broken clouds
66,Hobart,AU,-42.88,147.33,48.99,46.0,81,75,13.87,light intensity shower rain
67,East London,ZA,-33.02,27.91,58.62,58.62,72,100,5.73,overcast clouds
68,Ha Giang,VN,22.83,104.98,89.29,89.29,62,62,2.59,light rain
69,Swinoujscie,PL,53.91,14.25,60.01,57.0,99,41,15.19,scattered clouds
70,Bay Roberts,CA,47.6,-53.26,59.0,57.99,100,0,1.01,clear sky
71,Provideniya,RU,64.38,-173.3,53.6,53.6,76,75,6.71,broken clouds
72,Georgetown,MY,5.41,100.34,87.8,84.0,79,20,5.82,few clouds
73,Tiarei,PF,-17.53,-149.33,80.6,80.01,69,40,5.82,scattered clouds
74,Takoradi,GH,4.88,-1.76,72.86,72.86,90,32,8.79,scattered clouds
75,Bardiyah,LY,31.76,25.09,73.8,73.8,82,0,6.89,clear sky
76,Ostrovnoy,RU,68.05,39.51,55.81,55.81,87,5,18.81,clear sky
77,Vao,NC,-22.67,167.48,70.39,70.39,70,66,12.33,broken clouds
78,Hermanus,ZA,-34.42,19.23,55.0,55.0,95,100,7.45,overcast clouds
79,Barrow,US,71.29,-156.79,46.4,46.4,75,1,9.17,clear sky
80,Meulaboh,ID,4.14,96.13,84.49,84.49,70,12,5.19,few clouds
81,Culleredo,ES,43.29,-8.39,59.0,53.01,93,0,2.24,clear sky
82,Victoria,HK,22.29,114.16,91.0,87.01,66,0,4.0,clear sky
83,Mut,TR,36.64,33.44,68.68,68.68,42,0,4.7,clear sky
84,Bengkulu,ID,-3.8,102.27,85.51,85.51,61,45,5.99,scattered clouds
85,Grafton,US,42.21,-71.69,68.0,64.99,88,75,5.32,light rain
86,Tuktoyaktuk,CA,69.45,-133.04,68.0,68.0,60,75,10.29,broken clouds
87,Kollam,IN,8.88,76.6,84.2,84.2,74,20,5.82,haze
88,Whitehorse,CA,60.72,-135.05,60.8,55.0,77,75,3.36,shower rain
89,Bambous Virieux,MU,-20.34,57.76,72.0,71.6,73,40,16.11,scattered clouds
90,Biltine,TD,14.53,20.92,75.74,75.74,83,96,5.95,light rain
91,Kurilsk,RU,45.23,147.88,65.68,65.68,65,92,2.24,overcast clouds
92,Mahebourg,MU,-20.41,57.7,71.6,71.6,73,40,16.11,scattered clouds
93,Mar Del Plata,AR,-38.0,-57.56,51.01,50.0,81,46,11.41,scattered clouds
94,Novokizhinginsk,RU,51.61,109.59,56.88,56.88,85,100,6.31,light rain
95,Lebu,CL,-37.62,-73.65,50.5,50.5,91,100,17.87,light rain
96,Umm Lajj,SA,25.02,37.27,81.28,81.28,52,0,6.93,clear sky
97,Hithadhoo,MV,-0.6,73.08,82.29,82.29,80,99,13.38,moderate rain
98,Kapaa,US,22.08,-159.32,86.0,81.0,66,20,12.75,few clouds
99,Ust-Ishim,RU,57.69,71.17,53.13,53.13,92,99,6.26,overcast clouds
100,Namibe,AO,-15.2,12.15,63.73,63.73,92,96,1.01,overcast clouds
101,Lakhdenpokhya,RU,61.52,30.2,59.0,59.0,93,71,5.82,broken clouds
102,Frederico Westphalen,BR,-27.36,-53.39,55.99,52.0,86,0,5.08,clear sky
103,Sanmenxia,CN,34.77,111.18,80.4,80.4,59,100,14.09,overcast clouds
104,Puerto Ayora,EC,-0.74,-90.35,66.0,66.0,89,27,3.0,scattered clouds
105,Kununurra,AU,-15.77,128.73,91.4,91.4,13,0,8.05,clear sky
106,Sorland,NO,67.67,12.69,52.92,52.92,79,33,22.12,light rain
107,Pishva,IR,35.31,51.73,66.2,64.4,59,0,18.34,clear sky
108,Amethi,IN,26.15,81.82,84.7,84.7,73,31,7.76,scattered clouds
109,Avarua,CK,-21.21,-159.78,75.2,75.2,69,6,4.7,clear sky
110,Walvis Bay,NA,-22.96,14.51,54.0,51.8,93,0,6.93,clear sky
111,Castro,BR,-24.79,-50.01,48.2,48.2,91,53,13.49,broken clouds
112,Vila Velha,BR,-20.33,-40.29,66.2,66.0,77,4,11.41,clear sky
113,Kenora,CA,49.82,-94.43,69.8,69.01,88,75,2.24,broken clouds
114,Presidencia Roque Saenz Pena,AR,-26.79,-60.44,66.51,66.51,45,100,7.52,overcast clouds
115,Belmonte,BR,-15.86,-38.88,66.2,66.2,88,75,8.05,broken clouds
116,Kapit,MY,2.02,112.93,85.6,85.6,72,35,2.71,light rain
117,Kahului,US,20.89,-156.47,89.6,75.99,46,40,19.46,scattered clouds
118,Luderitz,NA,-26.65,15.16,55.56,55.56,72,0,8.7,clear sky
119,Gagarin,RU,55.55,35.0,60.19,60.19,74,84,10.54,broken clouds
120,Rjukan,NO,59.88,8.59,41.0,41.0,86,0,7.63,clear sky
121,Talnakh,RU,69.49,88.4,60.8,60.8,72,40,20.13,scattered clouds
122,Cam Ranh,VN,11.92,109.16,93.2,93.2,63,20,4.7,few clouds
123,Rocha,UY,-34.48,-54.33,50.92,50.92,89,0,11.23,clear sky
124,Aksu,CN,41.12,80.26,84.99,84.99,23,0,3.56,clear sky
125,Mountain Home,US,43.13,-115.69,86.0,86.0,23,1,9.17,clear sky
126,Aktanysh,RU,55.72,54.08,57.79,57.79,88,74,4.99,broken clouds
127,Saint George,US,37.1,-113.58,86.0,75.0,37,40,29.97,heavy intensity rain
128,Hovd,MN,48.01,91.64,65.14,65.14,34,99,0.49,overcast clouds
129,Plettenberg Bay,ZA,-34.05,23.37,57.9,57.9,84,100,5.06,light rain
130,Tripoli,LY,32.88,13.19,79.77,79.77,80,36,9.78,scattered clouds
131,Naze,JP,28.37,129.48,78.8,78.8,100,75,29.97,light intensity shower rain
132,Upernavik,GL,72.79,-56.15,43.97,43.97,80,100,2.53,overcast clouds
133,Aswan,EG,24.09,32.91,79.27,79.27,30,0,2.93,clear sky
134,Port Alfred,ZA,-33.59,26.89,57.47,57.47,81,100,10.13,overcast clouds
135,Campo Verde,BR,-20.42,-54.07,68.0,68.0,52,0,11.41,clear sky
136,Kaeo,NZ,-35.1,173.78,57.99,57.99,3,78,10.0,light rain
137,Tautira,PF,-17.73,-149.15,80.6,80.01,69,40,5.82,scattered clouds
138,Olafsvik,IS,64.89,-23.71,49.41,49.41,74,10,3.27,clear sky
139,Loralai,PK,30.37,68.6,77.99,77.99,61,5,3.24,light rain
140,Hobyo,SO,5.35,48.53,75.06,75.06,79,93,20.6,overcast clouds
141,Terney,RU,45.05,136.61,70.99,70.99,63,99,5.64,overcast clouds
142,Oneida,US,43.2,-75.47,71.6,69.01,73,1,5.82,clear sky
143,Harper,LR,4.38,-7.72,75.9,75.9,81,100,7.11,overcast clouds
144,Dwarka,IN,22.24,68.97,82.99,82.99,82,100,19.77,moderate rain
145,Kangaatsiaq,GL,68.31,-53.46,43.5,43.5,88,0,10.36,clear sky
146,Nacala,MZ,-14.54,40.67,66.09,66.09,90,100,7.2,overcast clouds
147,Aipe,CO,3.22,-75.24,76.91,76.91,67,97,1.16,light rain
148,Yar-Sale,RU,66.83,70.83,53.87,53.87,86,86,13.56,overcast clouds
149,Port Lincoln,AU,-34.73,135.87,54.01,54.01,66,99,6.93,overcast clouds
150,Zunyi,CN,27.69,106.91,76.01,76.01,83,94,5.82,light rain
151,Honolulu,US,21.31,-157.86,87.8,78.01,48,20,19.46,few clouds
152,Okhotsk,RU,59.38,143.3,55.42,55.42,59,98,6.62,overcast clouds
153,Marienburg,PL,54.04,19.03,55.0,52.0,100,0,7.43,clear sky
154,Lasa,IT,46.62,10.7,53.6,53.6,93,5,5.82,clear sky
155,Hilo,US,19.73,-155.09,82.4,72.0,69,90,8.05,heavy intensity rain
156,Aykhal,RU,66.0,111.5,55.4,55.4,47,0,4.47,clear sky
157,Yulara,AU,-25.24,130.99,77.0,77.0,18,0,10.29,clear sky
158,Kruisfontein,ZA,-34.0,24.73,55.0,55.0,88,100,4.0,light rain
159,Nuuk,GL,64.18,-51.72,37.4,37.4,100,88,4.7,haze
160,Ilulissat,GL,69.22,-51.1,39.2,39.2,80,0,4.16,clear sky
161,Antofagasta,CL,-23.65,-70.4,57.2,57.2,76,90,4.7,overcast clouds
162,Lavrentiya,RU,65.58,-171.0,48.88,48.88,90,100,5.26,overcast clouds
163,Aklavik,CA,68.22,-135.01,71.6,71.6,46,75,9.17,broken clouds
164,Fallon,US,39.47,-118.78,89.6,88.0,17,1,10.29,clear sky
165,Teacapan,MX,22.55,-105.75,81.95,81.95,85,26,3.33,light rain
166,Turmalina,BR,-17.29,-42.73,53.51,53.51,95,49,2.13,scattered clouds
167,Diffa,NE,13.32,12.61,76.24,76.24,76,46,9.91,scattered clouds
168,Kurmanayevka,RU,52.51,52.07,57.54,57.54,82,0,4.76,clear sky
169,Porto Murtinho,BR,-21.7,-57.88,64.94,64.94,74,0,5.39,clear sky
170,Palmer,US,42.16,-72.33,69.8,64.99,88,75,5.82,broken clouds
171,Abha,SA,18.22,42.51,71.6,69.8,56,61,3.71,broken clouds
172,Tiksi,RU,71.69,128.87,41.02,41.02,70,93,12.71,overcast clouds
173,San Quintin,MX,30.48,-115.95,75.4,75.4,71,0,8.79,clear sky
174,Bodo,NO,67.28,14.4,50.0,48.0,76,75,9.17,shower rain
175,Chuy,UY,-33.7,-53.46,53.69,53.69,89,0,10.71,clear sky
176,Sokur,RU,55.21,83.32,59.0,59.0,87,0,4.47,clear sky
177,Quesnel,CA,53.0,-122.5,60.8,60.8,77,1,2.24,clear sky
178,Jaguaribe,BR,-5.89,-38.62,71.96,71.96,80,5,3.02,clear sky
179,Outlook,CA,51.5,-107.05,68.09,68.09,36,41,6.04,scattered clouds
180,Isangel,VU,-19.55,169.27,82.67,82.67,73,21,6.82,light rain
181,Juneau,US,58.3,-134.42,57.0,55.4,93,90,5.82,light rain
182,Grand Gaube,MU,-20.01,57.66,72.0,72.0,72,38,10.0,scattered clouds
183,Hasaki,JP,35.73,140.83,89.01,86.0,70,75,12.75,broken clouds
184,Mayo,US,38.89,-76.51,78.01,73.99,94,40,9.01,scattered clouds
185,Rio Gallegos,AR,-51.62,-69.22,33.8,33.8,69,10,12.75,clear sky
186,Puerto Baquerizo Moreno,EC,-0.9,-89.6,64.87,64.87,86,63,12.35,broken clouds
187,Great Falls,US,47.5,-111.3,86.0,75.99,23,1,6.93,clear sky
188,Kapoeta,SS,4.77,33.59,72.28,72.28,83,63,1.68,light rain
189,Coihaique,CL,-45.58,-72.07,33.8,33.8,95,79,4.7,broken clouds
190,Potrero Del Llano,MX,21.05,-97.68,74.73,74.73,90,25,0.56,light rain
191,Santa Maria Do Suacui,BR,-18.19,-42.41,56.37,56.37,86,66,1.07,broken clouds
192,Borskoye,RU,53.03,51.72,57.9,57.9,85,9,3.8,clear sky
193,Manaure,CO,11.78,-72.44,83.62,83.62,75,72,6.76,light rain
194,Port Macquarie,AU,-31.43,152.92,66.0,64.99,35,0,1.99,clear sky
195,Thinadhoo,MV,0.53,72.93,82.81,82.81,71,73,7.05,moderate rain
196,Borazjan,IR,29.27,51.22,89.6,89.6,70,0,9.17,clear sky
197,Ahuimanu,US,21.44,-157.84,87.8,78.01,62,40,11.41,scattered clouds
198,Denpasar,ID,-8.65,115.22,82.4,82.4,83,20,10.29,few clouds
199,Bathsheba,BB,13.22,-59.52,80.6,80.6,83,40,8.05,scattered clouds
200,Aranos,NA,-24.13,19.12,53.94,53.94,50,0,9.53,clear sky
201,Bethel,US,41.37,-73.41,73.4,69.01,88,1,3.02,clear sky
202,Pachino,IT,36.72,15.09,73.0,73.0,76,0,7.25,clear sky
203,Villarrobledo,ES,39.27,-2.6,71.01,64.99,86,1,1.99,clear sky
204,Najran,SA,17.49,44.13,82.4,82.4,24,100,2.24,overcast clouds
205,Barra Dos Coqueiros,BR,-10.91,-37.04,75.2,75.2,78,20,3.36,few clouds
206,Tuskegee,US,32.42,-85.69,75.0,73.99,100,100,1.01,overcast clouds
207,Fairbanks,US,64.84,-147.72,69.8,62.01,49,90,8.05,light rain
208,Alekseyevka,RU,50.63,38.69,58.05,58.05,60,3,3.15,clear sky
209,Seoul,KR,37.57,126.98,87.8,87.8,58,40,4.7,scattered clouds
210,Bandar-E Lengeh,IR,26.56,54.88,89.6,89.6,75,1,13.87,haze
211,Kuala Terengganu,MY,5.33,103.14,84.2,84.0,83,40,2.24,scattered clouds
212,Ponta Do Sol,PT,32.67,-17.1,75.2,70.0,60,20,19.46,few clouds
213,Serchhip,IN,23.3,92.83,80.92,80.92,71,13,0.2,few clouds
214,Bulolo,PG,-7.2,146.65,81.55,81.55,55,96,2.46,light rain
215,San Miguel El Alto,MX,21.02,-102.35,60.46,60.46,80,23,2.62,light rain
216,Sao Joao Da Barra,BR,-21.64,-41.05,63.55,63.55,74,6,11.1,clear sky
217,Veshenskaya,RU,49.63,41.73,58.41,58.41,63,1,1.19,clear sky
218,Campos Novos,BR,-27.4,-51.23,46.13,46.13,93,0,8.21,clear sky
219,Tonantins,BR,-2.87,-67.8,71.13,71.13,69,0,2.04,clear sky
220,Bharatpur,IN,27.22,77.48,82.44,82.44,79,43,11.05,scattered clouds
221,Mitchell,US,43.71,-98.03,78.8,78.8,69,1,6.93,clear sky
222,Sitka,US,57.05,-135.33,57.2,57.2,87,90,3.36,mist
223,Cidreira,BR,-30.18,-50.21,60.48,60.48,84,0,14.23,clear sky
224,Yellowknife,CA,62.46,-114.35,59.0,55.99,62,20,5.82,few clouds
225,Kasempa,ZM,-13.46,25.83,53.4,53.4,78,45,6.2,scattered clouds
226,Bonavista,CA,48.65,-53.11,60.01,60.01,82,82,11.01,broken clouds
227,Glendive,US,47.11,-104.71,75.2,73.99,29,1,10.29,clear sky
228,Hervey Bay,AU,-25.3,152.85,69.8,69.8,19,0,10.29,clear sky
229,Tuatapere,NZ,-46.13,167.68,60.01,60.01,72,8,5.32,clear sky
230,Poso,ID,-1.4,120.75,88.11,88.11,46,30,1.63,scattered clouds
231,Salalah,OM,17.02,54.09,75.2,75.2,100,90,6.93,light intensity drizzle
232,Csaszartoltes,HU,46.42,19.18,66.0,66.0,59,97,8.93,overcast clouds
233,San Patricio,MX,19.22,-104.7,80.83,80.83,82,89,2.06,overcast clouds
234,Suzun,RU,53.78,82.31,62.98,62.98,70,38,3.83,scattered clouds
235,Klaksvik,FO,62.23,-6.59,44.6,44.6,93,95,1.12,overcast clouds
236,Svetlogorsk,BY,52.63,29.73,62.83,62.83,98,100,4.9,overcast clouds
237,Northam,GB,51.03,-4.22,60.01,57.99,94,100,1.01,moderate rain
238,Gao,ML,16.64,1.64,88.02,88.02,45,100,12.03,overcast clouds
239,Rosa Zarate,EC,0.33,-79.47,72.61,72.61,84,100,2.24,overcast clouds
240,Iberia,US,29.95,-91.75,80.6,75.99,78,1,4.7,clear sky
241,Jibuti,DJ,11.5,42.5,89.6,89.6,59,40,11.01,haze
242,Larsnes,NO,62.2,5.58,48.0,45.0,86,96,8.01,light rain
243,Lae,PG,-6.72,146.98,81.99,81.99,71,98,8.99,light rain
244,Anqing,CN,30.51,117.05,92.77,92.77,58,0,8.86,clear sky
245,Severo-Kurilsk,RU,50.68,156.12,54.64,54.64,83,54,4.9,broken clouds
246,Lompoc,US,34.64,-120.46,70.0,68.0,77,1,9.17,clear sky
247,Zhezkazgan,KZ,47.8,67.71,62.6,62.6,63,75,15.66,broken clouds
248,Rzhaksa,RU,52.13,42.03,55.53,55.53,72,11,4.99,few clouds
249,Ville-Marie,CA,47.33,-79.43,62.6,62.6,93,75,3.36,broken clouds
250,Verona,IT,45.42,11.03,66.0,62.01,93,79,3.36,broken clouds
251,La Romana,DO,18.43,-68.97,78.8,78.8,94,75,9.1,broken clouds
252,San Andres,CO,12.58,-81.7,80.6,80.6,88,40,2.1,scattered clouds
253,Jieshi,CN,22.81,115.83,85.32,85.32,70,3,7.49,clear sky
254,New Norfolk,AU,-42.78,147.06,48.99,46.0,78,94,1.99,light rain
255,Camacha,PT,33.08,-16.33,71.6,71.6,83,40,13.87,scattered clouds
256,Fukue,JP,32.69,128.84,86.0,86.0,84,75,5.82,broken clouds
257,Oktyabrskoye,RU,43.06,44.74,46.4,46.4,93,0,4.47,clear sky
258,Talara,PE,-4.58,-81.27,61.3,61.3,85,0,13.56,clear sky
259,Belyy Yar,RU,53.6,91.39,64.4,64.4,68,87,2.24,overcast clouds
260,Omboue,GA,-1.57,9.26,73.06,73.06,81,100,5.73,overcast clouds
261,Batagay,RU,67.63,134.63,48.4,48.4,52,30,5.7,scattered clouds
262,Xuddur,SO,4.12,43.89,69.03,69.03,76,31,18.14,scattered clouds
263,Faanui,PF,-16.48,-151.75,77.22,77.22,79,18,19.98,few clouds
264,Dunedin,NZ,-45.87,170.5,53.01,48.0,84,89,7.36,overcast clouds
265,San Cristobal,VE,7.77,-72.22,66.16,66.16,92,95,3.4,light rain
266,Morondava,MG,-20.28,44.28,71.08,71.08,87,5,8.32,clear sky
267,Canakkale,TR,40.08,26.83,71.6,71.6,73,11,10.29,few clouds
268,Luganville,VU,-15.53,167.17,83.35,83.35,74,99,6.8,light rain
269,Vuktyl,RU,63.86,57.31,51.55,51.55,78,12,5.53,few clouds
270,Iqaluit,CA,63.75,-68.51,41.0,41.0,86,40,4.7,scattered clouds
271,Kavaratti,IN,10.57,72.64,81.7,81.7,78,99,14.05,overcast clouds
272,Conde,BR,-7.26,-34.91,69.8,69.8,94,65,3.36,broken clouds
273,Ucluelet,CA,48.93,-125.55,60.01,60.01,85,100,1.01,overcast clouds
274,Codrington,AU,-38.27,141.97,51.49,51.49,61,36,11.54,scattered clouds
275,Araouane,ML,18.9,-3.53,92.68,92.68,35,0,14.14,clear sky
276,Flin Flon,CA,54.77,-101.86,55.54,55.54,81,61,10.42,broken clouds
277,Kalmunai,LK,7.42,81.82,84.36,84.36,60,88,7.72,overcast clouds
278,Tignere,CM,7.37,12.65,61.86,61.86,98,100,2.51,light rain
279,Auki,SB,-8.77,160.7,83.84,83.84,74,61,2.57,moderate rain
280,Quatre Cocos,MU,-20.21,57.76,72.0,71.6,73,75,13.87,shower rain
281,Mangla,PK,31.89,72.38,90.9,90.9,54,1,9.69,clear sky
282,Paracuru,BR,-3.41,-39.03,79.0,79.0,68,12,21.99,few clouds
283,Swellendam,ZA,-34.02,20.44,55.4,55.4,93,100,1.12,overcast clouds
284,Ozu,JP,33.5,132.55,90.0,84.2,74,20,6.93,few clouds
285,Bagdarin,RU,54.43,113.6,51.35,51.35,86,100,4.52,overcast clouds
286,Airai,TL,-8.93,125.41,75.65,75.65,37,0,7.27,clear sky
287,Mount Gambier,AU,-37.83,140.77,48.2,48.2,81,75,11.41,drizzle
288,Loiza,PR,18.43,-65.88,82.4,80.01,88,40,10.29,scattered clouds
289,San Jeronimo,PE,-11.95,-75.28,48.16,48.16,60,13,3.56,few clouds
290,Uthal,PK,25.81,66.62,85.78,85.78,78,100,5.21,overcast clouds
291,Oleksandrivka,UA,48.96,32.23,60.91,60.91,47,0,8.57,clear sky
292,Puerto Ayacucho,VE,5.66,-67.62,73.29,73.29,91,96,3.33,overcast clouds
293,Kavieng,PG,-2.57,150.8,76.15,76.15,90,100,3.27,moderate rain
294,The Valley,AI,18.22,-63.06,84.2,80.01,74,20,10.29,few clouds
295,Saurimo,AO,-9.66,20.39,61.38,61.38,47,0,1.14,clear sky
296,Berlevag,NO,70.86,29.09,54.1,54.1,88,100,8.7,overcast clouds
297,Vytegra,RU,61.01,36.45,58.93,58.93,94,100,7.2,overcast clouds
298,Port Keats,AU,-14.25,129.55,91.65,91.65,20,0,5.48,clear sky
299,Ancud,CL,-41.87,-73.82,41.0,32.0,100,90,13.87,overcast clouds
300,Marathon,US,44.9,-89.77,75.2,70.0,83,1,4.52,clear sky
301,Asau,RO,46.43,26.4,62.01,62.01,93,11,2.91,light rain
302,Hamilton,US,39.18,-84.53,75.0,69.01,94,40,2.35,scattered clouds
303,Sakakah,SA,29.97,40.21,80.6,80.6,19,0,8.05,clear sky
304,Polunochnoye,RU,60.87,60.42,52.45,52.45,73,0,1.95,clear sky
305,Sisimiut,GL,66.94,-53.67,44.2,44.2,87,46,4.38,scattered clouds
306,Manicore,BR,-5.81,-61.3,76.37,76.37,52,0,1.95,clear sky
307,Pekalongan,ID,-6.89,109.68,86.4,86.4,56,35,4.27,scattered clouds
308,Sao Filipe,CV,14.9,-24.5,79.11,79.11,86,89,15.23,overcast clouds
309,Geraldton,AU,-28.77,114.6,62.6,62.6,63,0,8.05,clear sky
310,Flinders,AU,-34.58,150.86,62.01,62.01,42,0,7.0,clear sky
311,Los Llanos De Aridane,ES,28.66,-17.92,79.0,73.4,69,1,9.17,clear sky
312,Yarada,IN,17.65,83.27,86.0,86.0,79,40,10.29,mist
313,Jurado,CO,7.11,-77.76,77.63,77.63,87,100,4.47,light rain
314,Menongue,AO,-14.66,17.69,53.49,53.49,44,9,4.05,clear sky
315,Angoche,MZ,-16.23,39.91,67.93,67.93,83,96,5.48,overcast clouds
316,Saint Anthony,US,45.02,-93.22,80.6,72.0,69,1,3.11,clear sky
317,Oranjestad,AW,12.52,-70.03,84.2,84.2,79,20,20.8,few clouds
318,Saint-Andre-Avellin,CA,45.72,-75.07,66.99,64.99,97,100,3.2,overcast clouds
319,Aguimes,ES,27.91,-15.45,78.8,73.99,44,0,24.16,clear sky
320,Esperance,AU,-33.87,121.9,59.0,59.0,82,40,9.17,scattered clouds
321,Karaton,ID,-6.34,106.1,84.2,84.0,66,75,2.24,haze
322,Scottsbluff,US,41.87,-103.67,86.0,82.99,30,1,10.29,clear sky
323,Krasnoshchekovo,RU,51.67,82.73,63.79,63.79,54,100,4.56,overcast clouds
324,Pandamatenga,BW,-18.53,25.63,54.36,54.36,57,2,1.88,clear sky
325,Morehead,US,37.27,-87.18,75.2,69.8,100,1,4.18,clear sky
326,Sao Jose Da Coroa Grande,BR,-8.9,-35.15,72.84,72.84,79,100,4.16,overcast clouds
327,Ossora,RU,59.24,163.07,53.83,53.83,63,88,6.22,overcast clouds
328,Nago,JP,26.59,127.98,80.6,80.01,88,90,36.91,light rain
329,Noumea,NC,-22.28,166.46,73.99,69.8,83,90,4.7,overcast clouds
330,Reconquista,AR,-29.15,-59.65,59.94,59.94,67,3,10.69,clear sky
331,Beisfjord,NO,68.38,17.6,50.0,44.01,87,96,21.92,overcast clouds
332,Nanortalik,GL,60.14,-45.24,42.37,42.37,87,32,7.4,scattered clouds
333,Broome,US,42.25,-75.83,70.0,68.0,77,1,3.36,clear sky
334,Tessalit,ML,20.2,1.01,86.7,86.7,45,100,12.53,overcast clouds
335,Tingo Maria,PE,-9.29,-76.01,67.03,67.03,83,13,1.9,few clouds
336,Nishihara,JP,26.18,127.76,80.6,80.01,94,90,31.09,light intensity shower rain
337,Ngunguru,NZ,-35.62,174.5,57.99,57.99,3,95,10.0,light rain
338,Gat,IL,31.61,34.76,75.99,68.0,29,0,2.46,clear sky
339,Ligayan,PH,4.65,119.47,84.65,84.65,71,33,7.61,scattered clouds
340,Mareeba,AU,-17.0,145.43,82.0,79.0,39,50,1.01,scattered clouds
341,Irbeyskoye,RU,55.64,95.45,61.5,61.5,80,100,6.82,overcast clouds
342,Kargopol,RU,61.51,38.95,58.03,58.03,95,99,6.55,overcast clouds
343,Sambava,MG,-14.27,50.17,68.11,68.11,80,41,10.74,scattered clouds
344,Zyryanka,RU,65.75,150.85,44.98,44.98,58,100,8.37,overcast clouds
345,Alekseyevsk,RU,57.84,108.35,68.09,68.09,49,0,5.46,clear sky
346,Tecolutla,MX,20.48,-97.02,80.02,80.02,79,12,1.52,light rain
347,Beringovskiy,RU,63.05,179.32,54.95,54.95,77,49,6.38,scattered clouds
348,Coquimbo,CL,-29.95,-71.34,55.4,55.4,62,94,8.1,overcast clouds
349,Clyde River,CA,70.47,-68.59,41.81,41.81,90,100,3.49,light rain
350,Souillac,MU,-20.52,57.52,71.6,71.6,73,75,13.87,shower rain
351,Naushki,RU,50.38,106.11,62.26,62.26,57,54,4.79,broken clouds
352,Gunnedah,AU,-30.98,150.25,55.4,55.4,54,40,12.75,scattered clouds
353,Ikryanoye,RU,46.09,47.73,59.0,59.0,58,37,4.47,scattered clouds
354,Monrovia,LR,6.3,-10.8,76.57,76.57,84,100,12.68,light rain
355,Inhambane,MZ,-23.86,35.38,63.28,63.28,79,0,7.76,clear sky
356,Katakwi,UG,1.89,33.97,64.33,64.33,92,97,2.42,overcast clouds
357,Namatanai,PG,-3.67,152.43,76.41,76.41,86,100,8.25,moderate rain
358,Zhoucheng,CN,35.91,116.31,79.65,79.65,89,88,11.97,light rain
359,Wanning,CN,18.8,110.4,88.52,88.52,64,82,12.5,broken clouds
360,Manadhoo,MV,5.77,73.38,83.79,83.79,67,53,6.29,broken clouds
361,Tezu,IN,27.92,96.17,87.8,87.8,60,80,2.59,light rain
362,Hofn,IS,64.25,-15.21,48.29,48.29,84,100,8.25,overcast clouds
363,Nantucket,US,41.28,-70.1,69.8,69.01,94,40,6.93,mist
364,Hailey,US,43.52,-114.32,77.0,63.0,31,5,5.57,smoke
365,Saint Pete Beach,US,27.73,-82.74,82.99,81.0,1,100,1.99,overcast clouds
366,Urazovo,RU,50.08,38.04,57.81,57.81,61,9,1.86,clear sky
367,Paita,PE,-5.09,-81.11,61.3,61.3,83,1,10.07,clear sky
368,Mangan,IN,27.52,88.53,83.7,83.7,47,0,3.87,clear sky
369,Zheleznodorozhnyy,RU,55.75,38.0,61.0,50.0,100,87,4.47,overcast clouds
370,Hvolsvollur,IS,63.75,-20.22,44.01,44.01,92,31,3.0,scattered clouds
371,Omvriaki,GR,39.1,22.27,72.0,68.0,68,0,3.36,clear sky
372,Tocopilla,CL,-22.09,-70.2,59.04,59.04,63,35,3.31,scattered clouds
373,Vardo,NO,70.37,31.11,53.6,53.6,100,40,8.05,scattered clouds
374,Agronom,RU,45.14,39.19,60.01,57.0,62,0,6.71,clear sky
375,Kargasok,RU,59.06,80.86,57.02,57.02,76,99,5.97,overcast clouds
376,Wasilla,US,61.58,-149.44,61.0,57.99,87,90,3.6,light rain
377,Talaya,RU,61.38,152.75,42.33,42.33,63,99,12.59,overcast clouds
378,Kabinda,CD,-6.13,24.48,68.58,68.58,83,100,3.74,overcast clouds
379,Oksovskiy,RU,62.61,39.9,58.15,58.15,95,100,6.98,overcast clouds
380,Svetlaya,RU,46.54,138.33,67.8,67.8,72,98,5.48,overcast clouds
381,Cabo San Lucas,MX,22.89,-109.91,86.0,82.0,58,5,3.36,clear sky
382,Ginda,IN,30.69,78.49,78.8,78.8,88,40,2.98,mist
383,Constitucion,CL,-35.33,-72.42,50.65,50.65,82,100,14.23,overcast clouds
384,Katsuura,JP,35.13,140.3,89.01,87.01,62,40,9.17,scattered clouds
385,Nalut,LY,30.33,10.85,73.74,73.74,48,0,10.36,clear sky
386,Pullman,US,46.73,-117.18,82.0,72.0,24,1,3.36,clear sky
387,Koshki,RU,54.21,50.47,57.47,57.47,90,2,4.45,clear sky
388,Khandyga,RU,62.67,135.6,57.63,57.63,38,100,2.59,overcast clouds
389,Karlskoga,SE,59.33,14.52,55.99,53.01,87,0,8.05,clear sky
390,Henties Bay,NA,-22.12,14.28,54.0,54.0,93,0,1.01,clear sky
391,Saldanha,ZA,-33.01,17.94,50.0,50.0,93,91,5.82,overcast clouds
392,Salinopolis,BR,-0.61,-47.36,79.02,79.02,84,6,11.45,clear sky
393,Port-Gentil,GA,-0.72,8.78,74.79,74.79,79,100,12.15,overcast clouds
394,Jalu,LY,29.03,21.55,74.17,74.17,53,0,9.08,clear sky
395,Macamic,CA,48.75,-79.0,64.4,64.4,77,20,6.93,few clouds
396,Naujamiestis,LT,55.69,24.15,57.2,57.2,93,0,9.17,clear sky
397,Raudeberg,NO,61.99,5.14,48.0,48.0,83,99,16.28,light rain
398,Magog,CA,45.27,-72.15,69.01,62.01,100,75,2.24,broken clouds
399,Rauma,FI,61.13,21.51,55.4,55.4,93,0,5.82,light rain
400,Marinha Grande,PT,39.75,-8.93,64.99,64.0,93,42,1.12,scattered clouds
401,Encrucijada,CU,22.62,-79.87,80.6,80.6,88,20,5.82,few clouds
402,Luba,GQ,3.46,8.55,75.67,75.67,83,100,8.55,moderate rain
403,Novo Aripuana,BR,-5.12,-60.38,76.89,76.89,51,0,1.43,clear sky
404,Kieta,PG,-6.22,155.63,82.72,82.72,69,100,5.68,light rain
405,Vicksburg,US,32.35,-90.88,78.8,75.2,100,1,5.46,clear sky
406,Coahuayana,MX,18.73,-103.68,79.65,79.65,86,78,1.7,light rain
407,Raga,SS,8.46,25.68,67.73,67.73,97,99,3.6,overcast clouds
408,Normandin,CA,48.83,-72.53,62.6,62.6,77,40,4.7,scattered clouds
409,Roald,NO,62.58,6.13,48.2,45.0,76,82,13.87,light rain
410,Ishigaki,JP,24.34,124.16,86.0,86.0,89,75,18.34,broken clouds
411,Banjar,ID,-8.19,114.97,82.4,82.4,83,20,10.29,few clouds
412,Santa Rosa,PH,14.31,121.11,90.0,89.01,75,100,10.0,overcast clouds
413,Padang,ID,-0.95,100.35,86.05,86.05,59,66,2.59,broken clouds
414,Gorontalo,ID,0.54,123.06,88.14,88.14,55,68,7.38,broken clouds
415,Baie-Saint-Paul,CA,47.44,-70.5,61.0,61.0,80,8,8.01,clear sky
416,Santa Isabel Do Rio Negro,BR,-0.41,-65.02,74.21,74.21,71,0,1.07,clear sky
417,Kuryk,KZ,43.2,51.65,70.43,70.43,55,34,11.83,scattered clouds
418,Portland,US,45.52,-122.68,78.01,72.0,57,0,7.65,clear sky
419,Heihe,CN,50.24,127.49,66.2,66.2,82,40,4.47,scattered clouds
420,Pangnirtung,CA,66.15,-65.71,45.43,45.43,79,100,1.99,overcast clouds
421,Sterling,US,39.01,-77.43,79.0,71.6,78,40,5.82,scattered clouds
422,Oktyabrskiy,RU,54.48,53.47,57.02,57.02,87,33,2.51,scattered clouds
423,Abay,KZ,49.63,72.85,55.4,55.4,76,97,2.24,overcast clouds
424,Podolsk,RU,55.42,37.55,61.0,53.6,87,91,2.24,overcast clouds
425,Tiznit,MA,29.58,-9.5,84.63,84.63,30,11,1.77,few clouds
426,Ilhabela,BR,-23.78,-45.36,61.99,61.99,79,6,2.93,clear sky
427,Piacabucu,BR,-10.41,-36.43,71.96,71.96,82,0,4.59,clear sky
428,Pengcheng,CN,36.43,114.17,75.49,75.49,82,99,8.5,light rain
429,Laguna,US,38.42,-121.42,84.0,81.0,39,1,9.17,haze
430,Taree,AU,-31.9,152.47,62.01,60.8,31,0,13.87,clear sky
431,Yeppoon,AU,-23.13,150.73,73.4,73.4,16,5,6.93,clear sky
432,Ternate,ID,0.8,127.4,82.81,82.81,71,46,4.54,light rain
433,Purpe,RU,64.48,76.69,60.01,60.01,85,60,9.86,broken clouds
434,Broadstairs,GB,51.36,1.44,60.01,55.0,80,91,1.01,overcast clouds
435,Atambua,ID,-9.11,124.89,85.46,85.46,35,0,4.61,clear sky
436,Neiafu,TO,-18.65,-173.98,80.6,80.6,74,40,13.87,scattered clouds
437,Malazgirt,TR,39.14,42.54,54.75,54.75,63,0,3.83,clear sky
438,Dingle,PH,11.0,122.67,87.33,87.33,68,0,3.42,clear sky
439,Timiryazevskiy,RU,56.49,84.88,57.99,55.4,93,75,4.47,broken clouds
440,Turayf,SA,31.67,38.66,68.0,68.0,40,0,6.93,clear sky
441,Chapais,CA,49.78,-74.85,53.6,53.6,81,1,3.36,clear sky
442,Acapulco,MX,16.86,-99.89,82.4,82.4,78,75,3.36,broken clouds
443,Arandis,NA,-22.42,14.97,54.0,54.0,93,0,1.01,clear sky
444,El Dorado,US,33.21,-92.67,75.2,75.0,83,0,4.07,clear sky
445,Buala,SB,-8.14,159.59,84.61,84.61,71,61,5.84,light rain
446,Xining,CN,36.62,101.77,63.84,63.84,54,20,0.87,few clouds
447,Jasper,US,37.2,-94.35,78.8,71.01,57,1,3.69,clear sky
448,Vestmannaeyjar,IS,63.44,-20.27,51.76,51.76,73,33,4.76,scattered clouds
449,Mikhaylovka,RU,50.06,43.24,57.6,57.6,62,0,0.25,clear sky
450,Alihe,CN,50.57,123.72,66.74,66.74,79,100,3.98,overcast clouds
451,Kampong Thum,KH,12.71,104.89,87.17,87.17,64,82,3.4,broken clouds
452,Ak-Dovurak,RU,51.18,90.6,59.97,59.97,57,100,0.85,overcast clouds
453,Ninghai,CN,29.29,121.42,96.01,93.2,52,20,4.47,few clouds
454,Sioux Lookout,CA,50.1,-91.92,69.8,69.8,94,75,4.7,broken clouds
455,Calama,CL,-22.47,-68.93,55.4,55.4,35,75,3.36,broken clouds
456,Akyab,MM,20.15,92.9,80.83,80.83,86,100,13.98,moderate rain
457,Trairi,BR,-3.28,-39.27,76.64,76.64,78,34,12.82,scattered clouds
458,Mogadishu,SO,2.04,45.34,75.36,75.36,80,28,13.24,scattered clouds
459,Quelimane,MZ,-17.88,36.89,61.75,61.75,91,0,2.33,clear sky
460,Hanna,CA,51.63,-111.9,64.0,64.0,56,87,5.99,overcast clouds
461,Dicabisagan,PH,17.08,122.42,88.52,88.52,63,17,7.05,few clouds
462,Rovaniemi,FI,66.5,25.72,48.2,48.2,100,2,10.29,clear sky
463,Lodja,CD,-3.48,23.43,69.82,69.82,92,100,1.36,overcast clouds
464,Port Hardy,CA,50.7,-127.42,60.8,60.8,72,75,9.17,broken clouds
465,Rock Sound,BS,24.9,-76.2,85.24,85.24,77,14,31.56,light rain
466,Divnomorskoye,RU,44.5,38.14,63.7,63.7,54,0,10.78,clear sky
467,Imbituba,BR,-28.24,-48.67,59.0,59.0,100,40,1.12,scattered clouds
468,Fort Nelson,CA,58.81,-122.7,59.0,59.0,87,75,3.36,broken clouds
469,Baie-Comeau,CA,49.22,-68.15,59.0,59.0,93,90,5.82,overcast clouds
470,Maragogi,BR,-9.01,-35.22,72.1,72.1,81,100,3.44,overcast clouds
471,El Chimbo,HN,14.13,-87.12,65.25,65.25,99,100,2.66,light rain
472,Nador,MA,35.17,-2.93,77.0,69.8,83,5,3.69,clear sky
473,Khasan,RU,42.43,130.64,72.77,72.77,83,100,10.78,overcast clouds
474,Pljevlja,ME,43.33,19.33,62.6,62.6,100,10,3.36,light rain
475,La Seyne-Sur-Mer,FR,43.1,5.88,71.01,59.0,56,25,4.0,scattered clouds
476,Bialogard,PL,54.01,15.99,57.0,54.0,10,48,9.26,scattered clouds
477,Luena,AO,-11.78,19.92,58.3,58.3,40,90,6.35,overcast clouds
478,Havre-Saint-Pierre,CA,50.23,-63.6,53.6,53.6,93,90,10.29,overcast clouds
479,Okha,RU,53.57,142.95,61.61,61.61,68,37,10.65,scattered clouds
480,Savannakhet,LA,16.57,104.75,80.6,80.6,78,75,2.24,mist
481,Nizhniy Odes,RU,63.64,54.86,54.73,54.73,84,100,5.48,overcast clouds
482,Aja,EG,30.94,31.29,67.3,67.3,88,0,2.73,clear sky
483,Makakilo City,US,21.35,-158.09,89.6,84.2,49,1,9.17,clear sky
484,Natal,BR,-5.79,-35.21,73.4,73.4,88,20,6.93,few clouds
485,Ceyhan,TR,37.02,35.82,75.2,72.0,36,0,10.29,clear sky
486,Tomatlan,MX,19.93,-105.25,78.71,78.71,92,100,2.62,light rain
487,Puri,IN,19.8,85.85,84.72,84.72,76,100,7.4,light rain
488,Dunyapur,PK,29.8,71.72,87.8,87.8,70,20,4.7,smoke
489,Carutapera,BR,-1.2,-46.02,75.78,75.78,90,21,5.7,few clouds
490,Mount Isa,AU,-20.73,139.5,77.0,77.0,13,0,12.75,clear sky
491,Yantarnyy,RU,54.87,19.94,59.0,59.0,93,0,8.95,light rain
492,Russell,US,32.35,-85.2,75.2,73.99,94,40,4.59,scattered clouds
493,Santa Maria,BR,-29.68,-53.81,53.56,53.56,83,0,7.05,clear sky
494,Moyale,KE,3.52,39.06,64.09,64.09,82,100,14.12,overcast clouds
495,Paka,MY,4.64,103.44,86.0,86.0,66,20,4.7,few clouds
496,Kroya,ID,-7.63,109.25,80.96,80.96,74,99,7.61,overcast clouds
497,Madras,IN,13.09,80.28,82.4,82.4,74,75,4.7,broken clouds
498,Ugoofaaru,MV,5.67,73.0,84.06,84.06,67,35,6.71,light rain
499,Knysna,ZA,-34.04,23.05,55.4,55.4,100,75,9.17,broken clouds
500,Landeck,AT,47.13,10.56,53.6,53.6,93,5,5.82,clear sky
501,Baruun-Urt,MN,46.68,113.28,72.82,72.82,47,14,6.98,few clouds
502,Yamada,JP,39.47,141.95,81.09,81.09,68,35,6.15,scattered clouds
503,Kurchum,KZ,48.57,83.65,72.66,72.66,34,99,3.98,overcast clouds
504,Nsoko,SZ,-27.03,31.95,60.8,60.8,36,0,6.93,clear sky
505,Dakar,SN,14.69,-17.44,82.4,82.4,88,40,4.7,scattered clouds
506,Pires Do Rio,BR,-17.3,-48.28,59.25,59.25,88,0,4.99,clear sky
507,Destin,US,30.39,-86.5,79.0,75.99,88,1,10.29,light rain
508,Villa Carlos Paz,AR,-31.42,-64.5,61.0,50.0,37,0,8.05,clear sky
509,Bati,ET,11.18,40.02,67.08,67.08,77,99,4.81,light rain
510,Narsaq,GL,60.92,-46.05,42.8,42.8,81,8,3.36,clear sky
511,Cockburn Town,TC,21.46,-71.14,84.02,84.02,83,100,23.67,overcast clouds
512,Bumba,CD,2.18,22.47,69.4,69.4,94,100,2.57,overcast clouds
513,Zaragoza,ES,41.66,-0.88,66.2,66.2,63,0,19.46,clear sky
514,Nha Trang,VN,12.25,109.18,93.2,93.2,63,20,4.7,few clouds
515,Praia Da Vitoria,PT,38.73,-27.07,71.6,71.6,94,20,7.9,few clouds
516,Moshkovo,RU,55.31,83.61,59.0,59.0,87,3,4.47,clear sky
517,Sabang,ID,5.89,95.32,83.79,83.79,72,65,10.2,light rain
518,Keshorai Patan,IN,25.3,75.93,78.49,78.49,88,98,12.24,overcast clouds
519,Zhigansk,RU,66.77,123.37,49.78,49.78,58,0,10.71,clear sky
520,Singkang,MY,2.1,102.8,84.2,84.0,74,20,3.36,few clouds
521,San Miguel,SV,13.48,-88.18,75.4,75.4,94,100,2.59,light rain
522,Tahoua,NE,14.89,5.27,82.4,82.4,69,100,4.7,moderate rain
523,Belozerskoye,RU,55.82,65.58,54.84,54.84,85,0,6.58,clear sky
524,Villazon,BO,-22.09,-65.59,39.52,39.52,57,0,0.65,clear sky
525,Severo-Yeniseyskiy,RU,60.37,93.04,61.07,61.07,61,47,4.29,scattered clouds
526,Painesville,US,41.72,-81.25,75.0,71.01,78,1,5.68,clear sky
527,Bjornevatn,NO,69.67,29.98,55.4,55.4,93,100,14.99,light rain
528,Bubaque,GW,11.28,-15.83,80.67,80.67,80,100,8.95,overcast clouds
529,Alice Springs,AU,-23.7,133.88,77.0,75.0,16,0,9.17,clear sky
530,Ko Samui,TH,9.54,99.94,89.6,89.6,70,20,8.05,few clouds
531,Chatellerault,FR,46.8,0.53,55.0,51.8,100,67,4.7,broken clouds
532,Abu Dhabi,AE,24.47,54.37,93.2,91.4,66,20,2.24,few clouds
533,Chicama,PE,-7.84,-79.15,59.88,59.88,84,10,5.1,clear sky
534,Aflao,TG,6.12,1.19,73.4,73.4,94,75,8.05,broken clouds
535,Buraydah,SA,26.33,43.98,80.6,80.6,34,0,6.93,clear sky
536,Maldonado,UY,-34.67,-54.92,55.0,51.8,93,0,3.36,clear sky
537,Independence,US,39.09,-94.42,84.2,77.0,54,1,8.05,clear sky
538,Labuan,MY,5.28,115.24,84.2,84.0,83,20,3.36,few clouds
539,Chamba,IN,32.57,76.13,76.46,76.46,70,39,2.91,scattered clouds
540,Moree,AU,-29.47,149.85,59.0,59.0,46,0,13.87,clear sky
541,Maymyo,MM,22.03,96.47,78.8,78.8,88,75,9.17,broken clouds
542,Baffa,PK,34.44,73.22,79.61,79.61,72,40,2.62,light rain
543,Harbour Breton,CA,47.48,-55.8,59.0,59.0,100,26,7.11,scattered clouds
544,Valparaiso,CL,-33.04,-71.63,54.0,54.0,64,100,13.18,overcast clouds
545,Danszentmiklos,HU,47.21,19.55,61.0,59.0,82,63,1.12,broken clouds
546,Guerrero Negro,MX,27.98,-114.06,75.13,75.13,70,0,18.25,clear sky
547,Idappadi,IN,11.58,77.85,80.6,80.6,78,40,1.32,haze
548,Romitan,UZ,39.93,64.38,78.8,78.8,44,30,4.7,scattered clouds
549,Sandpoint,US,48.28,-116.55,71.01,66.99,43,1,0.58,clear sky
550,Koraput,IN,18.82,82.72,75.87,75.87,82,99,9.33,overcast clouds
551,Dubbo,AU,-32.25,148.62,53.6,53.6,54,40,12.75,scattered clouds
552,Yerbogachen,RU,61.28,108.01,61.0,61.0,40,48,10.89,scattered clouds
553,Inta,RU,66.03,60.17,50.61,50.61,66,0,3.67,clear sky
554,Douglas,US,41.3,-96.17,82.0,80.01,74,1,7.78,clear sky
555,Saint-Leu,RE,-21.15,55.28,69.8,55.0,59,10,8.05,clear sky
556,Kirakira,SB,-10.45,161.92,85.57,85.57,65,97,6.08,light rain
557,Bowen,AU,-20.02,148.23,78.01,73.4,31,3,12.75,clear sky
558,Paamiut,GL,61.99,-49.67,42.13,42.13,92,21,8.3,few clouds
559,Saint-Augustin,CA,51.23,-58.65,55.26,55.26,79,59,8.57,broken clouds
560,Miles City,US,46.41,-105.84,82.4,82.4,23,1,6.93,clear sky
561,Singaraja,ID,-8.11,115.09,85.35,85.35,50,0,3.69,clear sky
562,Harrison,US,30.41,-89.04,80.6,75.99,78,1,6.93,clear sky
563,Maceio,BR,-9.67,-35.74,68.0,68.0,94,20,2.24,few clouds
564,Beaumont,US,30.09,-94.1,82.4,78.01,74,40,3.36,scattered clouds
565,Kondinskoye,RU,59.65,67.41,54.54,54.54,89,100,10.85,overcast clouds
566,Marystown,CA,47.17,-55.15,59.0,59.0,100,3,9.66,clear sky
567,Galveston,US,29.37,-94.97,88.0,75.99,58,1,8.05,clear sky
568,Vanimo,PG,-2.67,141.3,78.39,78.39,86,100,5.86,light rain
569,Monte Patria,CL,-30.69,-70.95,50.23,50.23,72,80,2.68,broken clouds
570,Cabra,ES,37.47,-4.44,72.0,72.0,57,0,3.44,clear sky
571,Acolla,PE,-11.73,-75.55,45.9,45.9,63,10,2.51,clear sky
572,Leningradskiy,RU,69.38,178.42,44.91,44.91,86,99,10.8,overcast clouds
573,Haines Junction,CA,60.75,-137.51,60.75,60.75,61,61,4.05,broken clouds
574,Ust-Ordynskiy,RU,52.8,104.75,62.6,62.6,77,20,2.24,few clouds
575,Ust-Nera,RU,64.57,143.2,47.8,47.8,49,100,5.95,overcast clouds
576,Sur,OM,22.57,59.53,78.96,78.96,79,70,11.48,broken clouds
577,Te Anau,NZ,-45.42,167.72,54.66,54.66,62,29,2.53,scattered clouds
578,Egvekinot,RU,66.32,-179.17,51.55,51.55,76,74,5.61,broken clouds
579,Lima,PE,-12.04,-77.03,62.6,62.6,67,90,9.17,overcast clouds
580,Richards Bay,ZA,-28.78,32.04,59.74,59.74,81,0,2.91,clear sky
581,Adre,TD,13.47,22.2,68.29,68.29,84,100,10.02,moderate rain
582,Smithers,CA,54.78,-127.17,60.8,60.8,72,75,4.7,broken clouds
583,Yuli,NG,9.7,10.27,71.33,71.33,91,100,2.39,light rain
584,Pisco,PE,-13.7,-76.22,62.01,60.8,87,90,11.41,overcast clouds
585,Yongan,CN,39.7,113.69,69.19,69.19,58,37,5.64,scattered clouds
586,Pochutla,MX,15.74,-96.47,73.99,73.99,96,99,3.27,moderate rain
587,Arlit,NE,18.74,7.39,88.97,88.97,37,99,8.1,overcast clouds
588,Yangambi,CD,0.81,24.43,68.5,68.5,98,100,1.05,overcast clouds
589,Mpongwe,ZM,-13.51,28.16,51.4,51.4,91,58,4.99,broken clouds
590,Marivan,IR,35.52,46.18,60.21,60.21,50,0,5.75,clear sky
591,Batemans Bay,AU,-35.72,150.18,60.01,51.01,51,0,1.01,clear sky
592,Quchan,IR,37.11,58.51,61.14,61.14,62,0,10.16,clear sky
593,Nouadhibou,MR,20.93,-17.03,75.2,75.2,78,31,9.17,scattered clouds
594,Poya,NC,-21.35,165.15,75.6,75.6,61,89,9.89,overcast clouds
595,Porto Novo,BJ,6.5,2.6,72.79,72.79,89,100,5.57,overcast clouds
596,La Baule-Escoublac,FR,47.29,-2.36,55.99,55.4,93,75,5.82,broken clouds
597,Port Blair,IN,11.67,92.75,84.67,84.67,74,92,9.24,overcast clouds
598,Kathmandu,NP,27.72,85.32,73.4,73.4,94,75,2.24,broken clouds
599,Muzhi,RU,65.37,64.67,52.97,52.97,72,90,3.94,overcast clouds
600,Cochrane,CA,51.18,-114.47,66.0,60.01,48,75,8.05,broken clouds
601,Butembo,CD,0.15,29.28,56.05,56.05,100,85,1.1,light rain
602,Kunming,CN,25.04,102.72,73.0,64.4,93,90,11.18,overcast clouds
603,Yinchuan,CN,38.47,106.27,82.22,82.22,28,0,7.31,clear sky
604,Cap-Aux-Meules,CA,47.38,-61.86,66.2,66.2,77,75,10.29,light rain
605,Biak,ID,-0.91,122.88,83.34,83.34,62,67,5.61,broken clouds
606,Bonham,US,33.58,-96.18,82.99,80.01,57,1,8.05,clear sky
607,Edremit,TR,39.6,27.02,73.4,73.4,73,0,18.34,clear sky
608,Sistranda,NO,63.73,8.83,48.2,48.2,81,75,20.8,shower rain
609,Chokwe,MZ,-24.53,32.98,60.64,60.64,65,0,7.23,clear sky
610,Atikokan,CA,48.76,-91.62,64.06,64.06,93,32,1.28,scattered clouds
611,Kanniyakumari,IN,8.08,77.57,81.77,81.77,74,81,14.0,broken clouds
612,Avera,US,33.19,-82.53,75.2,73.0,87,1,4.7,clear sky
613,Ruteng,ID,-8.61,120.47,77.02,77.02,51,14,2.44,few clouds
614,Sebeta,ET,8.92,38.62,55.4,55.4,93,75,1.03,broken clouds
615,Kedrovyy,RU,56.17,91.82,57.2,57.2,87,40,2.24,light intensity shower rain
616,Lichuan,CN,30.3,108.85,76.5,76.5,83,100,3.27,moderate rain
617,Korla,CN,41.76,86.15,85.73,85.73,23,11,2.48,few clouds
618,Pemangkat,ID,1.17,108.97,84.18,84.18,69,85,2.77,overcast clouds
619,Palana,RU,59.12,159.97,45.55,45.55,88,100,8.12,light rain
620,Moengo,SR,5.62,-54.4,73.53,73.53,98,37,1.99,scattered clouds
621,Whitecourt,CA,54.15,-115.69,64.4,64.4,45,75,3.36,broken clouds
622,Jiaocheng,CN,24.68,116.14,93.11,93.11,53,0,3.2,clear sky
623,Tromso,NO,69.65,18.96,50.0,50.0,87,75,11.41,broken clouds
624,Zhigalovo,RU,54.81,105.16,61.14,61.14,78,100,3.18,overcast clouds
625,Khorramshahr,IR,30.44,48.17,84.2,84.2,39,0,4.7,clear sky
626,Gizo,SB,-8.1,156.84,83.07,83.07,75,100,9.33,light rain
627,Kushima,JP,31.46,131.23,89.6,87.8,62,75,8.05,broken clouds
628,Chenove,FR,47.29,5.0,59.0,55.99,82,100,3.36,overcast clouds
629,Leshukonskoye,RU,64.9,45.76,58.12,58.12,96,100,6.71,overcast clouds
630,Sao Felix Do Xingu,BR,-6.64,-51.99,81.54,81.54,39,68,1.41,broken clouds
631,Limoges,FR,45.75,1.33,55.4,53.01,87,31,2.24,scattered clouds
632,Dunmore Town,BS,25.5,-76.65,84.79,84.79,77,12,30.36,moderate rain
633,Milton Keynes,GB,52.04,-0.76,54.0,52.0,91,34,1.99,scattered clouds
634,Maridi,SS,4.92,29.47,64.9,64.9,97,100,4.32,overcast clouds
635,Lamas,PE,-6.42,-76.53,65.21,65.21,87,30,2.15,scattered clouds
636,Booue,GA,-0.09,11.94,73.94,73.94,79,100,4.23,overcast clouds
637,Waingapu,ID,-9.66,120.26,87.19,87.19,43,0,14.7,clear sky
638,Tonekabon,IR,36.82,50.87,66.2,66.2,100,90,4.56,overcast clouds
639,Sibolga,ID,1.74,98.78,85.69,85.69,59,32,3.11,scattered clouds
640,Shalya,RU,57.25,58.73,51.91,51.91,87,0,3.09,clear sky
641,Khomeyn,IR,33.64,50.08,60.58,60.58,34,0,2.62,clear sky
642,Doha,QA,25.29,51.53,91.99,89.6,89,40,3.36,scattered clouds
643,Qasigiannguit,GL,68.82,-51.19,39.2,39.2,80,0,0.72,clear sky
644,Concordia,AR,-31.39,-58.02,57.0,57.0,67,0,11.01,clear sky
645,Whittlesea,ZA,-32.18,26.82,50.18,50.18,46,100,6.06,overcast clouds
646,Shenzhen,CN,22.55,114.07,93.0,87.01,70,20,4.47,few clouds
647,Kreuztal,DE,50.97,7.98,55.99,55.99,91,98,1.01,overcast clouds
648,Jinchang,CN,38.5,102.17,80.11,80.11,17,0,3.42,clear sky
649,Nome,US,64.5,-165.41,53.6,51.01,87,90,8.05,overcast clouds
650,Kiruna,SE,67.86,20.23,46.4,46.4,81,38,2.24,scattered clouds
651,Sangar,RU,63.92,127.47,49.14,49.14,64,97,3.49,overcast clouds
652,Hay River,CA,60.82,-115.8,55.4,55.4,82,75,3.36,broken clouds
653,Sutton,GB,51.35,-0.2,57.99,54.0,82,100,5.01,overcast clouds
654,Mahanoro,MG,-19.9,48.8,63.41,63.41,82,34,4.97,scattered clouds
655,Faya,SA,18.39,42.45,71.6,69.8,56,54,2.59,broken clouds
656,High Rock,BS,26.62,-78.28,85.39,85.39,76,45,23.78,light rain
657,Seymchan,RU,62.88,152.43,45.09,45.09,57,97,12.1,overcast clouds
658,Olinda,BR,-8.01,-34.86,73.4,73.4,83,40,4.7,scattered clouds
659,Kawalu,ID,-7.38,108.21,74.61,74.61,83,100,2.51,light rain
660,Ust-Kuyga,RU,70.02,135.6,45.81,45.81,58,25,15.05,scattered clouds
661,Kichera,RU,55.94,110.1,58.93,58.93,78,100,3.29,light rain
662,Roma,US,43.21,-75.46,71.6,69.01,73,1,5.82,clear sky
663,Kozlovo,RU,56.52,36.27,61.93,61.93,77,100,8.41,overcast clouds
664,Marsa Matruh,EG,31.35,27.25,71.6,71.6,78,0,4.7,clear sky
665,Gilroy,US,37.01,-121.57,75.99,70.0,64,1,4.7,clear sky
666,Lensk,RU,60.73,114.93,63.9,63.9,32,0,10.87,clear sky
667,Panaba,MX,21.28,-88.27,78.4,78.4,94,97,4.36,moderate rain
668,Jitra,MY,6.27,100.42,84.2,84.0,83,20,3.36,haze
669,Polovinnoye,RU,54.79,65.99,54.66,54.66,86,2,6.29,clear sky
670,Akureyri,IS,65.68,-18.09,35.6,35.6,93,100,3.36,fog
671,Kurikka,FI,62.62,22.42,55.4,55.0,93,25,4.7,scattered clouds
672,Huarmey,PE,-10.07,-78.15,59.97,59.97,86,12,8.63,few clouds
673,Twentynine Palms,US,34.14,-116.05,100.4,96.01,22,1,13.87,clear sky
674,Longyearbyen,SJ,78.22,15.64,35.6,35.6,74,48,5.82,scattered clouds
675,Marsh Harbour,BS,26.54,-77.06,84.88,84.88,77,1,25.5,light rain
676,Kathu,TH,7.92,98.33,87.01,86.0,62,20,4.7,few clouds
677,Tarko-Sale,RU,64.92,77.78,60.01,60.01,85,46,3.51,scattered clouds
678,Colesberg,ZA,-30.72,25.1,45.9,45.9,56,74,5.39,broken clouds
679,Gamba,GA,-2.65,10.0,72.52,72.52,85,100,5.17,overcast clouds
680,Puerto Escondido,MX,15.85,-97.07,79.18,79.18,81,100,3.67,light rain
681,Lexington Park,US,38.27,-76.45,80.6,77.0,83,1,6.93,clear sky
682,Jiayuguan,CN,39.82,98.3,81.41,81.41,15,0,7.11,clear sky
683,Phu Ly,VN,20.54,105.91,90.16,90.16,65,26,2.42,scattered clouds
684,Obong,PH,9.74,123.51,84.25,84.25,71,35,2.68,scattered clouds
685,Iwanai,JP,42.97,140.51,83.37,83.37,50,41,1.68,scattered clouds
686,Guapore,BR,-28.85,-51.89,54.0,53.01,69,0,4.54,clear sky
687,Panguna,PG,-6.32,155.48,78.85,78.85,73,100,3.65,light rain
688,Ondjiva,AO,-17.07,15.73,60.58,60.58,34,26,4.47,scattered clouds
689,Riverton,US,40.52,-111.94,81.0,79.0,27,0,1.99,clear sky
690,Ta Khmau,KH,11.48,104.95,87.8,87.8,66,20,6.93,few clouds
691,Cortez,US,37.35,-108.59,78.8,69.01,31,1,12.35,clear sky
692,Amapa,BR,1.0,-52.0,70.66,70.66,98,58,1.66,light rain
693,Mana,GF,5.66,-53.78,77.92,77.92,89,85,7.36,light rain
